stop_id,stop_code,stop_name,stop_desc,stop_lat,stop_lon,location_type,parent_station,stop_sequence,line,color
2035,,Château de Vincennes,Gare routière - 94080,48.844325144,2.4405523462,0,,1,1,#FFCD00
2067,,Bérault,98 avenue de Paris - 94080,48.84536875,2.4282445096,0,,2,1,#FFCD00
1725,,Saint-Mandé,180 avenue Galliéni - 94067,48.846238257,2.4189998281,0,,3,1,#FFCD00
1751,,Porte de Vincennes,99 Cours de Vincennes - 75120,48.847016518,2.4108168823,0,,4,1,#FFCD00
1832,,Nation,Terre-plein face au 3 place de la Nation - 75112,48.848111232,2.3980040128,0,,5,1,#FFCD00
1698,,Reuilly-Diderot,Boulevard Diderot - 75112,48.847352877,2.38584254,0,,6,1,#FFCD00
1955,,Gare de Lyon,Rue de Bercy - 75112,48.845559787,2.373449205,0,,7,1,#FFCD00
2062,,Bastille,Rue de la Roquette - 75104,48.852975675,2.3692188244,0,,8,1,#FFCD00
1642,,Saint-Paul (Le Marais),Rivoli (terre plein face au 10 rue de) - 75104,48.855134518,2.3613343391,0,,9,1,#FFCD00
1892,,Hôtel de Ville,Rue du Renard - 75104,48.857355927,2.3520735669,0,,10,1,#FFCD00
2036,,Châtelet,Théâtre du Châtelet - 75101,48.858569672,2.3479332458,0,,11,1,#FFCD00
1864,,Louvre-Rivoli,Amiral de Coligny (8 rue de l') - 75101,48.860879858,2.3409732758,0,,12,1,#FFCD00
1773,,Palais-Royal (Musée du Louvre),Terre-plein face au 93 rue de Rivoli - 75101,48.862371822,2.3365736007,0,,13,1,#FFCD00
1688,,Tuileries,210 rue de Rivoli - 75101,48.864780163,2.3290949544,0,,14,1,#FFCD00
1980,,Concorde,Place de la Concorde - 75108,48.865678096,2.3211937718,0,,15,1,#FFCD00
2083,,Champs-Elysées-Clémenceau,Clémenceau (place) - 75108,48.867744026,2.3141227804,0,,16,1,#FFCD00
1945,,Franklin-Roosevelt,Palais de la Découverte - 75108,48.869010428,2.3102531809,0,,17,1,#FFCD00
1961,,George V,118 avenue des Champs-Elysées - 75108,48.872045619,2.3007691856,0,,18,1,#FFCD00
2028,,Charles de Gaulle-Etoile,Place Charles de Gaulle - 75108,48.873931094,2.2951272517,0,,19,1,#FFCD00
2048,,Argentine,Rue des Acacias - 75117,48.875672486,2.2894441645,0,,20,1,#FFCD00
1755,,Porte Maillot,Palais des Congrès - 75117,48.878006176,2.28246564,0,,21,1,#FFCD00
1856,,Les Sablons (Jardin d'acclimatation),Jardin d'Acclimatation - 92051,48.881299185,2.271915176,0,,22,1,#FFCD00
1803,,Pont de Neuilly,209 avenue Charles de Gaulle - 92051,48.885506109,2.2585274702,0,,23,1,#FFCD00
1933,,Esplanade de la Défense,Quartier Saisons - 92062,48.88835806,2.2499372129,0,,24,1,#FFCD00
1887,,La Défense (Grande Arche),"Carpeaux (rue, gare du RER La Défense) - 92062",48.891826755,2.2379920432,0,,25,1,#FFCD00
1833,,Nation,Terre-plein face au 3 place de la Nation - 75112,48.849423901,2.3970250383,0,,1,2,#003CA6
2058,,Avron,Terre-plein face au 35 boulevard de Charonne - 751,48.851193819,2.3982391408,0,,2,2,#003CA6
2041,,Alexandre-Dumas,111 boulevard de Charonne - 75111,48.8564084,2.3944997576,0,,3,2,#003CA6
1788,,Philippe Auguste,212 boulevard de Charonne - 75111,48.858378841,2.3897347327,0,,4,2,#003CA6
1784,,Père-Lachaise,Avenue de la République - 75111,48.863161205,2.3872604002,0,,5,2,#003CA6
1812,,Ménilmontant,Ménilmontant (139/148 boulevard de) - 75111,48.865705788,2.3844293752,0,,6,2,#003CA6
2079,,Couronnes,Belleville (37 boulevard de) - 75111,48.869329169,2.3805363662,0,,7,2,#003CA6
2087,,Belleville,Terre-plein face au 1 boulevard de la Villette - 7,48.872287321,2.3767376773,0,,8,2,#003CA6
1978,,Colonel Fabien,Tterre-plein face au 83 boulevard de la Villette -,48.878184982,2.3701745466,0,,9,2,#003CA6
1900,,Jaurès,Face au 2 place de Stalingrad - 75119,48.882768547,2.369945799,0,,10,2,#003CA6
1674,,Stalingrad,Bassin de la Villette - 75119,48.884189294,2.367030442,0,,11,2,#003CA6
1910,,La Chapelle,Rue du Faubourg Saint Denis - 75110,48.884388698,2.3592765643,0,,12,2,#003CA6
2086,,Barbès-Rochechouart,Boulevard de la Chapelle - 75109,48.883680109,2.3495328037,0,,13,2,#003CA6
2046,,Anvers,68 boulevard Rochechouart - 75118,48.88287169,2.3441635728,0,,14,2,#003CA6
1791,,Pigalle,26 boulevard de Clichy - 75118,48.882422528,2.3372546821,0,,15,2,#003CA6
2071,,Blanche,Terre-plein face au 59 boulevard de Clichy - 75118,48.883770519,2.3324851483,0,,16,2,#003CA6
1795,,Place de Clichy,Terre-plein face au 7 place de Clichy - 75109,48.883455652,2.3273749934,0,,17,2,#003CA6
1707,,Rome,60 boulevard des Batignolles - 75117,48.882070834,2.3203983393,0,,18,2,#003CA6
1629,,Villiers,Parc de Monceau - 75117,48.881324294,2.3165967615,0,,19,2,#003CA6
1822,,Monceau,1 Place de la République Dominicaine - 75108,48.880576891,2.3094159462,0,,20,2,#003CA6
1989,,Courcelles,Boulevard de Courcelles - 75108,48.879272152,2.3032985467,0,,21,2,#003CA6
1684,,Ternes,Salle Pleyel - 75117,48.878228041,2.2981214326,0,,22,2,#003CA6
2029,,Charles de Gaulle-Etoile,Place Charles de Gaulle - 75108,48.873993841,2.2946639618,0,,23,2,#003CA6
1694,,Victor Hugo,4 place Victor Hugo - 75116,48.869864912,2.2852262073,0,,24,2,#003CA6
1736,,Porte Dauphine (Maréchal de Lattre de Tassigny),Boulevard Amiral Bruix - 75116,48.871792216,2.2748699612,0,,25,2,#003CA6
1949,,Gallieni (Parc de Bagnolet),Gare routière - 93006,48.863262527,2.4159753685,0,,1,3,#837902
1737,,Porte de Bagnolet,Rue de la Py - 75120,48.864336535,2.408825376,0,,2,3,#837902
1950,,Gambetta,Père-Lachaise - 75120,48.864782701,2.3984458338,0,,3,3,#837902
1785,,Père-Lachaise,Avenue de la République - 75111,48.862945662,2.3868924045,0,,4,3,#837902
1728,,Rue Saint-Maur,Avenue de la République - 75111,48.864089406,2.3808997886,0,,5,3,#837902
1779,,Parmentier,48 avenue de la République - 75111,48.865259857,2.3747570817,0,,6,3,#837902
1766,,République,Av de la République - 75111,48.867257944,2.3640373036,0,,7,3,#837902
1683,,Temple,Rue du Temple - 75103,48.866764168,2.361571327,0,,8,3,#837902
2050,,Arts-et-Métiers,Rue des Vertus - 75103,48.865551864,2.3561081551,0,,9,3,#837902
1765,,Réaumur-Sébastopol,Square Emile Chantemps - 75102,48.866280359,2.3524847968,0,,10,3,#837902
1662,,Sentier,97 rue Réaumur - 75102,48.867350381,2.3475672354,0,,11,3,#837902
2007,,Bourse,Rue Notre-Dame des Victoires - 75102,48.868761793,2.3406741288,0,,12,3,#837902
1760,,Quatre Septembre,20 rue du Quatre Septembre - 75102,48.869660572,2.3363282816,0,,13,3,#837902
1846,,Opéra,Théâtre National de l'Opéra - 75109,48.870720976,2.3322547436,0,,14,3,#837902
1889,,Havre-Caumartin,bd Haussmann - 75109,48.873461891,2.3284804845,0,,15,3,#837902
1722,,Saint-Lazare,Rue de l' Arcade - 75108,48.875681506,2.3255915848,0,,16,3,#837902
1935,,Europe,1 rue de Madrid - 75108,48.879060439,2.3229746324,0,,17,3,#837902
1630,,Villiers,Parc de Monceau - 75117,48.8814051,2.3161470509,0,,18,3,#837902
1881,,Malesherbes,Place du Général Catroux - 75117,48.882536473,2.311009243,0,,19,3,#837902
1634,,Wagram,Place Monseigneur Loutil - 75117,48.883712476,2.3055577575,0,,20,3,#837902
1786,,Pereire,Square Albert Besnard - 75117,48.885031061,2.2971351115,0,,21,3,#837902
1738,,Porte de Champerret,Place Stuart-Merrill - 75117,48.88573916,2.2918606207,0,,22,3,#837902
1862,,Louise Michel,Rue Anatole France - 92044,48.889269622,2.2880551248,0,,23,3,#837902
2044,,Anatole-France,Rue Voltaire - 92044,48.892018626,2.2855174448,0,,24,3,#837902
1802,,Pont de Levallois-Bécon,Rue Baudin - 92044,48.897309905,2.2807686428,0,,25,3,#837902
1752,,Porte des Lilas,Rue de Belleville - 75120,48.876938224,2.4063765669,0,,1,3b,#6EC4E8
1718,,Saint-Fargeau,112 avenue Gambetta - 75120,48.871699811,2.4042987242,0,,2,3b,#6EC4E8
1783,,Pelleport,"Paul Signac (place, en face du 125 avenue Gambetta",48.868223348,2.4013243805,0,,3,3b,#6EC4E8
1659,,Gambetta,Père-Lachaise - 75120,48.865034298,2.3985414869,0,,4,3b,#6EC4E8
1742,,Porte de Clignancourt,Rue Belliard - 75118,48.89797017,2.3439883834,0,,1,4,#CF009E
1668,,Simplon,38 boulevard Ornano - 75118,48.894042555,2.3473135786,0,,2,4,#CF009E
1655,,Marcadet-Poissonniers,88 boulevard Barbès - 75118,48.891543931,2.3493711154,0,,3,4,#CF009E
2033,,Château Rouge,Rue Custine - 75118,48.887086283,2.3493700733,0,,4,4,#CF009E
2061,,Barbès-Rochechouart,Boulevard de la Chapelle - 75109,48.88393177,2.3493557086,0,,5,4,#CF009E
1957,,Gare du Nord,Rue du Faubourg St Denis - 75110,48.879743064,2.3546008105,0,,6,4,#CF009E
1953,,Gare de l'Est (Verdun),Sortie - 75110,48.876695836,2.3579925106,0,,7,4,#CF009E
2034,,Château d'Eau,Boulevard de Strasbourg - 75110,48.872454151,2.3560561681,0,,8,4,#CF009E
1677,,Strasbourg-Saint-Denis,Porte Saint-Martin - 75102,48.869632365,2.3545020631,0,,9,4,#CF009E
1764,,Réaumur-Sébastopol,Square Emile Chantemps - 75102,48.86604667,2.352620954,0,,10,4,#CF009E
1934,,Etienne Marcel,14 rue Turbigo - 75101,48.863710366,2.3489831961,0,,11,4,#CF009E
1855,,Les Halles,Rue Turbigo - 75101,48.862011971,2.3464764519,0,,12,4,#CF009E
1964,,Châtelet,Théâtre du Châtelet - 75101,48.858300056,2.3478650876,0,,13,4,#CF009E
1975,,Cité,2 Place Louis Lepine - 75104,48.85568485,2.3462029295,0,,14,4,#CF009E
1729,,Saint-Michel,Place Saint-Michel - 75105,48.853599908,2.3439962411,0,,15,4,#CF009E
1845,,Odéon,Carrefour de l' Odéon - 75106,48.852198045,2.338780003,0,,16,4,#CF009E
1721,,Saint-Germain des Prés,Ecole des Beaux Arts - 75106,48.853447238,2.333046326,0,,17,4,#CF009E
1733,,Saint-Sulpice,Rue de Rennes - 75106,48.851146355,2.3309628564,0,,18,4,#CF009E
1731,,Saint-Placide,Rue de Rennes - 75106,48.84701184,2.3270551114,0,,19,4,#CF009E
1824,,Montparnasse-Bienvenue,"Raoul Dautry (place, SNCF Montparnasse) - 75114",48.844189509,2.3244412324,0,,20,4,#CF009E
1692,,Vavin,108 boulevard du Montparnasse - 75106,48.842059858,2.3288670504,0,,21,4,#CF009E
1645,,Raspail,Boulevard Edgard Quinet - 75114,48.839156981,2.3304741512,0,,22,4,#CF009E
1996,,Denfert-Rochereau,2 avenue du Général Leclerc - 75114,48.834276813,2.3322037973,0,,23,4,#CF009E
1828,,Mouton-Duvernet,42 avenue du Général Leclerc - 75114,48.832191599,2.3304069926,0,,24,4,#CF009E
2040,,Alésia,Place Victor et Hélène Basch - 75114,48.82806602,2.3268274201,0,,25,4,#CF009E
1735,,Porte d'Orléans (Général Leclerc),Rue de la Légion Etrangère - 75114,48.82281706,2.3250726251,0,,26,4,#CF009E
4028973,,Mairie de Montrouge,Rue Louis Rolland - 92049,48.818466337,2.3196432186,0,,27,4,#CF009E
2089,,Bobigny-Pablo-Picasso,Préfecture Trésorerie - 93008,48.907147313,2.4494575045,0,,1,5,#FF7E2E
2072,,Bobigny-Pantin (Raymond Queneau),7 rue de Paris - 93008,48.895799233,2.4248572984,0,,2,5,#FF7E2E
1932,,Eglise de Pantin,Rue Charles Auffrey - 93055,48.893632528,2.412900266,0,,3,5,#FF7E2E
1891,,Hoche,Centre Commercial - 93055,48.891499384,2.4031249607,0,,4,5,#FF7E2E
1746,,Porte de Pantin,Avenue Jean Jaurès - 75119,48.888583981,2.3924228757,0,,5,5,#FF7E2E
1772,,Ourcq,161 avenue Jean Jaurès - 75119,48.886923877,2.3866564344,0,,6,5,#FF7E2E
1922,,Laumière,av. Jean Jaurès - 75119,48.884931611,2.3790912469,0,,7,5,#FF7E2E
1901,,Jaurès,Face au 2 place de Stalingrad - 75119,48.882876216,2.3705863362,0,,8,5,#FF7E2E
1675,,Stalingrad,Bassin de la Villette - 75119,48.884153263,2.3673574775,0,,9,5,#FF7E2E
1958,,Gare du Nord,Rue du Faubourg St Denis - 75110,48.879383303,2.3563720814,0,,10,5,#FF7E2E
2076,,Gare de l'Est (Verdun),Sortie - 75110,48.876812625,2.3582514401,0,,11,5,#FF7E2E
1898,,Jacques-Bonsergent,bd de Magenta - 75110,48.870700823,2.3605786356,0,,12,5,#FF7E2E
1767,,République,Av de la République - 75111,48.867617487,2.3638195214,0,,13,5,#FF7E2E
1843,,Oberkampf,43 boulevard Voltaire - 75111,48.864902416,2.3675370135,0,,14,5,#FF7E2E
1700,,Richard-Lenoir,Boulevard Richar Lenoir - 75111,48.860488413,2.3719204375,0,,15,5,#FF7E2E
2008,,Bréguet-Sabin,Boulevard Richard Lenoir - 75111,48.856803949,2.3705968196,0,,16,5,#FF7E2E
2063,,Bastille,Rue de la Roquette - 75104,48.853389112,2.3691646022,0,,17,5,#FF7E2E
1759,,Quai de la Rapée,Quai de la Rapée - 75112,48.845966032,2.3669131797,0,,18,5,#FF7E2E
1951,,Gare d'Austerlitz,SNCF/RER C grandes lignes et banlieue - 75113,48.843414224,2.3641883929,0,,19,5,#FF7E2E
1641,,Saint-Marcel,La Pitié-Salpêtrière - 75113,48.838516744,2.3607275504,0,,20,5,#FF7E2E
2017,,Campo-Formio,106-112 boulevard de l' Hôpital - 75113,48.835551217,2.3587520952,0,,21,5,#FF7E2E
1793,,Place d'Italie,Place d' Italie - 75113,48.831282656,2.3554558704,0,,22,5,#FF7E2E
1834,,Nation,Terre-plein face au 3 place de la Nation - 75112,48.847455262,2.3977717436,0,,1,6,#6ECA97
1789,,Picpus,46 avenue de Saint-Mandé - 75112,48.845323115,2.4017863138,0,,2,6,#6ECA97
2065,,Bel-Air,34 boulevard de Picpus - 75112,48.841432007,2.4008691934,0,,3,6,#6ECA97
2081,,Daumesnil (Félix Eboué),Place Félix Eboué - 75112,48.839376463,2.3957880604,0,,4,6,#6ECA97
2082,,Dugommier,3 boulevard de Reuilly - 75112,48.838876152,2.3893473876,0,,5,6,#6ECA97
2068,,Bercy,Rue de Bercy - 75112,48.840192244,2.3794772573,0,,6,6,#6ECA97
1644,,Quai de la Gare,Quai de la Gare - 75113,48.837614676,2.3738521157,0,,7,6,#6ECA97
1974,,Chevaleret,Terre-plein face au 79 boulevard Vincent Auriol -,48.834964971,2.3680913459,0,,8,6,#6ECA97
1836,,Nationale,Terre-plein face au 124-143 boulevard Vincent Auri,48.832881289,2.361909408,0,,9,6,#6ECA97
1794,,Place d'Italie,Place d' Italie - 75113,48.831111838,2.3557961457,0,,10,6,#6ECA97
1987,,Corvisart,Boulevard Auguste Blanqui - 75113,48.829863252,2.3506227279,0,,11,6,#6ECA97
1962,,Glacière,Face au 124 boulevard Auguste Blanqui - 75113,48.831247952,2.3431220758,0,,12,6,#6ECA97
1640,,Saint-Jacques,Terre-plein face au 46 boulevard Saint-Jacques - 7,48.832991692,2.3366828966,0,,13,6,#6ECA97
1997,,Denfert-Rochereau,2 avenue du Général Leclerc - 75114,48.833998237,2.3332385012,0,,14,6,#6ECA97
1763,,Raspail,Boulevard Edgard Quinet - 75114,48.838878379,2.3306784193,0,,15,6,#6ECA97
1930,,Edgar-Quinet,Place Edgar Quinet) - 75114,48.840567726,2.3264028152,0,,16,6,#6ECA97
1825,,Montparnasse-Bienvenue,"Raoul Dautry (place, SNCF Montparnasse) - 75114",48.841870336,2.321228374,0,,17,6,#6ECA97
1781,,Pasteur,183 rue de Vaugirard - 75115,48.842012804,2.3132900438,0,,18,6,#6ECA97
1665,,Sèvres-Lecourbe,Terre-plein face au 94 boulevard Garibaldi - 75115,48.844996151,2.31086483,0,,19,6,#6ECA97
2016,,Cambronne,2 Boulevard Garibaldi Côté des N° pairs - 75115,48.847699108,2.3020391437,0,,20,6,#6ECA97
1657,,La Motte-Picquet-Grenelle,Face au 130-113 boulevard de Grenelle - 75115,48.849018928,2.2977621607,0,,21,6,#6ECA97
1926,,Dupleix,Boulevard de Grenelle - 75115,48.850392578,2.2936483362,0,,22,6,#6ECA97
2069,,Bir-Hakeim (Grenelle),Tour Eiffel - 75115,48.854327219,2.2888101037,0,,23,6,#6ECA97
1780,,Passy,pl. du Costa Rica - 75116,48.857534383,2.2855927058,0,,24,6,#6ECA97
1687,,Trocadéro,Place du Trocédéro - 75116,48.862666906,2.2872630616,0,,25,6,#6ECA97
2073,,Boissière,57 avenue Kléber - 75116,48.866856155,2.2900380734,0,,26,6,#6ECA97
1909,,Kléber,15 avenue Kléber - 75116,48.871306149,2.2933310209,0,,27,6,#6ECA97
2030,,Charles de Gaulle-Etoile,Place Charles de Gaulle - 75108,48.873715268,2.2947595628,0,,28,6,#6ECA97
1911,,La Courneuve-8-Mai-1945,Place du 8 Mai 1945 - 93027,48.920514507,2.4102257791,0,,1,7,#FA9ABA
1944,,Fort d'Aubervilliers,Gare routière - 93001,48.914056745,2.4035763345,0,,2,7,#FA9ABA
2055,,Aubervilliers Pantin (4 Chemins),80 avenue Jean Jaurès - 93001,48.903898048,2.3924800787,0,,3,7,#FA9ABA
1744,,Porte de la Villette,Cité des Sciences - La Géode - Le Zénith - 7511,48.897529157,2.3856442301,0,,4,7,#FA9ABA
1985,,Corentin-Cariou,avenue Corentin Cariou - 75119,48.894681542,2.382302194,0,,5,7,#FA9ABA
2080,,Crimée,Rue de Crimée - 75119,48.890288775,2.3767786489,0,,6,7,#FA9ABA
1703,,Riquet,Avenue de Flandre - 75119,48.888393232,2.3744331089,0,,7,7,#FA9ABA
1676,,Stalingrad,Bassin de la Villette - 75119,48.884071986,2.3688700628,0,,8,7,#FA9ABA
1860,,Louis Blanc,234 rue du Faubourg Saint-Martin - 75110,48.880900428,2.3651072183,0,,9,7,#FA9ABA
2085,,Château Landon,188 rue du Faubourg Saint-Martin - 75110,48.878456567,2.3620537162,0,,10,7,#FA9ABA
1954,,Gare de l'Est (Verdun),Sortie - 75110,48.876417053,2.3589870465,0,,11,7,#FA9ABA
1800,,Poissonnière,Terre-plein face au 96/98 rue La Fayette - 75110,48.877353095,2.349381424,0,,12,7,#FA9ABA
2015,,Cadet,Terre-plein face au 65 rue La Fayette - 75109,48.875825718,2.3433451246,0,,13,7,#FA9ABA
1849,,Le Peletier,Rue de la Victoire - 75109,48.874963058,2.3401567908,0,,14,7,#FA9ABA
1971,,Chaussée d'Antin (La Fayette),Rue La Fayette - 75109,48.872985825,2.3334262241,0,,15,7,#FA9ABA
1847,,Opéra,Théâtre National de l'Opéra - 75109,48.870559217,2.332554482,0,,16,7,#FA9ABA
1757,,Pyramides,Rue de l'Echelle - 75101,48.866496987,2.3340942153,0,,17,7,#FA9ABA
1774,,Palais-Royal (Musée du Louvre),Terre-plein face au 93 rue de Rivoli - 75101,48.863387385,2.3354838368,0,,18,7,#FA9ABA
1806,,Pont Neuf,quai du Louvre - 75101,48.858534102,2.3421172387,0,,19,7,#FA9ABA
1966,,Châtelet,Théâtre du Châtelet - 75101,48.857203646,2.3472247111,0,,20,7,#FA9ABA
1805,,Pont Marie (Cité des Arts),quai de l'Hôtel de Ville - 75104,48.853463586,2.3573839728,0,,21,7,#FA9ABA
1681,,Sully-Morland,Préfecture de Paris - 75104,48.850793595,2.3612369937,0,,22,7,#FA9ABA
1907,,Jussieu,39 rue Liné - 75105,48.845968432,2.3548073927,0,,23,7,#FA9ABA
1649,,Place Monge (Jardin des Plantes),Arènes de Lutèce - 75105,48.843164693,2.3521103624,0,,24,7,#FA9ABA
2020,,Censier-Daubenton,96 rue Monge - 75105,48.8405943,2.3517556129,0,,25,7,#FA9ABA
1854,,Les Gobelins,Manufacture des Gobelins - 75113,48.83612744,2.3520811178,0,,26,7,#FA9ABA
1648,,Place d'Italie,Place d' Italie - 75113,48.831552303,2.3553334432,0,,27,7,#FA9ABA
1685,,Tolbiac,Avenue d'Italie - 75113,48.826159454,2.3570194662,0,,28,7,#FA9ABA
1876,,Maison Blanche,144 avenue d' Italie - 75113,48.822878775,2.3580798943,0,,29,7,#FA9ABA
1925,,Le Kremlin-Bicêtre,Hôpital Kremlin Bicêtre - 94043,48.810385125,2.3618306831,0,,30,7,#FA9ABA
1639,,Villejuif-Léo Lagrange,Rue du Dauphin - 94076,48.803769663,2.3639093064,0,,31,7,#FA9ABA
1696,,Villejuif-Paul Vaillant Couturier (Hôpital Paul B,Boulevard Maxime Gorky - 94076,48.795994132,2.3682314519,0,,32,7,#FA9ABA
1695,,Villejuif-Louis Aragon,Boulevard Maxime Gorky - 94076,48.786638011,2.3671105274,0,,33,7,#FA9ABA
1871,,Mairie d'Ivry,Centre Commercial - 94041,48.811214535,2.3835089287,0,,34,7,#FA9ABA
1756,,Pré-Saint-Gervais,52 boulevard Serrurier - 75119,48.880159932,2.3985866219,0,,1,7b,#6ECA97
1635,,Danube,9 place Rhin et Danube - 75119,48.881951018,2.3932606759,0,,2,7b,#6ECA97
2002,,Botzaris,80 rue Botzaris - 75119,48.879607089,2.3894155697,0,,3,7b,#6ECA97
2013,,Buttes-Chaumont,28 rue Botzaris - 75119,48.877803956,2.3812110997,0,,4,7b,#6ECA97
2075,,Bolivar,125 avenue Simon Bolivar - 75119,48.880790123,2.3741551267,0,,5,7b,#6ECA97
1902,,Jaurès,Face au 2 place de Stalingrad - 75119,48.882328025,2.3704769688,0,,6,7b,#6ECA97
1861,,Louis Blanc,234 rue du Faubourg Saint-Martin - 75110,48.881493429,2.3657752423,0,,7,7b,#6ECA97
3343334,,Balard,Rue Louis Armand - 75115,48.836814989,2.2786833465,0,,1,8,#E19BDF
3343336,,Lourmel,Avenue Felix Faure - 75115,48.838668129,2.2822484884,0,,2,8,#E19BDF
3343338,,Boucicaut,Rue Félix Faure - 75115,48.841025355,2.2879238673,0,,3,8,#E19BDF
3343746,,Félix Faure,Place Félix Faure - 75115,48.842824568,2.2922249662,0,,4,8,#E19BDF
3343753,,Commerce,21 place du Commerce - 75115,48.844613672,2.2938029802,0,,5,8,#E19BDF
3343755,,La Motte-Picquet-Grenelle,Face au 130-113 boulevard de Grenelle - 75115,48.848803206,2.2976942347,0,,6,8,#E19BDF
3343757,,Ecole Militaire,Avenue Duquesne - 75107,48.854260922,2.3054395605,0,,7,8,#E19BDF
3343759,,La Tour-Maubourg,Les Invalides Tombeau de l'Empereur - Musée de l',48.857227861,2.3097962258,0,,8,8,#E19BDF
3343761,,Invalides,Rue de l' Université - 75107,48.861093468,2.3146433553,0,,9,8,#E19BDF
3343763,,Concorde,Place de la Concorde - 75108,48.865507222,2.3203628559,0,,10,8,#E19BDF
3343765,,Madeleine,Rue De Sèze - 75108,48.869507128,2.3246801996,0,,11,8,#E19BDF
3343767,,Opéra,Théâtre National de l'Opéra - 75109,48.87063108,2.3317370484,0,,12,8,#E19BDF
3343769,,Richelieu-Drouot,Rue Marivaux - 75109,48.872006239,2.3399113906,0,,13,8,#E19BDF
3343771,,Grands Boulevards,Musée Grévin - 75109,48.871574744,2.342895032,0,,14,8,#E19BDF
3343773,,Bonne Nouvelle,Boulevard de Bonne Nouvelle - 75109,48.870576754,2.3484942937,0,,15,8,#E19BDF
3343775,,Strasbourg-Saint-Denis,Porte Saint-Martin - 75102,48.86938078,2.3540796522,0,,16,8,#E19BDF
3343777,,République,Av de la République - 75111,48.867671519,2.3633291208,0,,17,8,#E19BDF
3343779,,Filles du Calvaire,Musée Picasso - 75103,48.863078176,2.3667458836,0,,18,8,#E19BDF
3343781,,Saint-Sébastien-Froissart,Rue Froissart - 75103,48.860974997,2.367262295,0,,19,8,#E19BDF
3343783,,Chemin Vert,Place des Vosges - 75103,48.857586544,2.3680366949,0,,20,8,#E19BDF
3343785,,Bastille,Rue de la Roquette - 75104,48.853739623,2.3691648179,0,,21,8,#E19BDF
3343787,,Ledru-Rollin,Rue Traversière - 75112,48.851194165,2.375931737,0,,22,8,#E19BDF
3343789,,Faidherbe-Chaligny,Hôpital St-Antoine - 75111,48.850067668,2.3844287707,0,,23,8,#E19BDF
3343791,,Reuilly-Diderot,Boulevard Diderot - 75112,48.847217501,2.3872041772,0,,24,8,#E19BDF
3343793,,Montgallet,68 rue de Reuilly - 75112,48.844403092,2.3902516532,0,,25,8,#E19BDF
3343795,,Daumesnil (Félix Eboué),Place Félix Eboué - 75112,48.83968214,2.3955841703,0,,26,8,#E19BDF
3343797,,Michel Bizot,Avenue Daumesnil - 75112,48.836991038,2.4029196069,0,,27,8,#E19BDF
3343799,,Porte Dorée,Place Edouard Renard - 75112,48.835497253,2.4061852122,0,,28,8,#E19BDF
3343801,,Porte de Charenton,68 Boulevard Poniatowsky - 75112,48.832660346,2.4004636384,0,,29,8,#E19BDF
3343803,,Liberté,Rue de Paris - 94018,48.825637112,2.4074108054,0,,30,8,#E19BDF
3343805,,Charenton-Ecoles,Rue de Paris - 94018,48.821489819,2.4138567623,0,,31,8,#E19BDF
3343807,,Ecole Vétérinaire de Maisons-Alfort,Musée Fragonard - 94046,48.81507632,2.4216317667,0,,32,8,#E19BDF
3343809,,Maisons-Alfort-Stade,26-28 avenue du Général Leclerc - 94046,48.808225347,2.4362758211,0,,33,8,#E19BDF
3343811,,Maisons-Alfort-Les Juilliottes,Avenue du Général Leclerc - 94046,48.802500442,2.4461836186,0,,34,8,#E19BDF
3343813,,Créteil-L'Echat (Hôpital Henri Mondor),Voie Félix Eboué - 94028,48.796601298,2.4495315244,0,,35,8,#E19BDF
3343815,,Créteil-Université,Rue Ferdinand de Lesseps - 94028,48.789724316,2.4508361064,0,,36,8,#E19BDF
3343817,,Créteil-Préfecture (Hôtel de Ville),Le Mont-Mesly - 94028,48.779757258,2.4593142911,0,,37,8,#E19BDF
3343819,,Pointe du Lac,avenue François Mitterrand - 94028,48.768768636,2.4643193989,0,,38,8,#E19BDF
1804,,Pont de Sèvres,quai Alphonse Le Gallo - 92012,48.829690338,2.2305284342,0,,1,9,#B6BD00
2088,,Billancourt,88 bis avenue du Général Leclerc - 92012,48.832087644,2.2381607769,0,,2,9,#B6BD00
1884,,Marcel Sembat,Rue des Quatre Cheminées - 92012,48.833808587,2.2434806144,0,,3,9,#B6BD00
1747,,Porte de Saint-Cloud,Place de la Porte de Saint-Cloud - 75116,48.837565334,2.2555912744,0,,4,9,#B6BD00
1936,,Exelmans,Hôpital Henry Dunant - 75116,48.842906979,2.2601443979,0,,5,9,#B6BD00
1816,,Michel-Ange-Molitor,34 rue Molitor - 75116,48.845056129,2.2619114233,0,,6,9,#B6BD00
1814,,Michel-Ange-Auteuil,55 rue d' Auteuil - 75116,48.847924593,2.2642359058,0,,7,9,#B6BD00
1899,,Jasmin,85 avenue Mozart - 75116,48.852438519,2.267933923,0,,8,9,#B6BD00
1762,,Ranelagh,48 avenue Mozart - 75116,48.855504403,2.2699591783,0,,9,9,#B6BD00
1917,,La Muette,5 avenue Mozart - 75116,48.85809505,2.2740964481,0,,10,9,#B6BD00
1708,,Rue de la Pompe (Avenue Georges Mandel),56 avenue Georges Mandel - 75116,48.864253384,2.277916762,0,,11,9,#B6BD00
1637,,Trocadéro,Place du Trocédéro - 75116,48.863089135,2.2868403785,0,,12,9,#B6BD00
1895,,Iéna,av. du Président Wilson - 75116,48.8643502,2.2940452638,0,,13,9,#B6BD00
2043,,Alma-Marceau,Pont de l'Alma - 75116,48.864298671,2.3012514104,0,,14,9,#B6BD00
1946,,Franklin-Roosevelt,Palais de la Découverte - 75108,48.868812632,2.3099263245,0,,15,9,#B6BD00
1730,,Saint-Philippe du Roule,69 avenue Franklin D. Roosevelt - 75108,48.872470666,2.3107691012,0,,16,9,#B6BD00
1819,,Miromesnil,29 rue de la Boétie - 75108,48.873532141,2.3155780249,0,,17,9,#B6BD00
1715,,Saint-Augustin,Église Saint-Augustin - 75108,48.87438676,2.320727832,0,,18,9,#B6BD00
1890,,Havre-Caumartin,bd Haussmann - 75109,48.873425977,2.3289709733,0,,19,9,#B6BD00
1972,,Chaussée d'Antin (La Fayette),Rue La Fayette - 75109,48.872859989,2.3330447509,0,,20,9,#B6BD00
1702,,Richelieu-Drouot,Rue Marivaux - 75109,48.872096124,2.3393255559,0,,21,9,#B6BD00
1712,,Grands Boulevards,Musée Grévin - 75109,48.871511817,2.3432083775,0,,22,9,#B6BD00
2001,,Bonne Nouvelle,Boulevard de Bonne Nouvelle - 75109,48.870495832,2.3488621174,0,,23,9,#B6BD00
1678,,Strasbourg-Saint-Denis,Porte Saint-Martin - 75102,48.869227931,2.3545291754,0,,24,9,#B6BD00
1647,,République,Av de la République - 75111,48.867410829,2.3635878256,0,,25,9,#B6BD00
1844,,Oberkampf,43 boulevard Voltaire - 75111,48.864974291,2.3676324116,0,,26,9,#B6BD00
1714,,Saint-Ambroise,86 boulevard Voltaire - 75111,48.861647424,2.3731471408,0,,27,9,#B6BD00
1633,,Voltaire (Léon Blum),Boulevard Voltaire - 75111,48.857663726,2.3800362968,0,,28,9,#B6BD00
2032,,Charonne,188 boulevard Voltaire - 75111,48.854642047,2.3850321933,0,,29,9,#B6BD00
1709,,Rue des Boulets,232 boulevard Voltaire - 75111,48.852222713,2.3891156509,0,,30,9,#B6BD00
1651,,Nation,Terre-plein face au 3 place de la Nation - 75112,48.849010154,2.3976646128,0,,31,9,#B6BD00
2014,,Buzenval,51 rue de Buzenval - 75120,48.851767475,2.4011814839,0,,32,9,#B6BD00
1882,,Maraîchers,67 bis rue des Pyrénées - 75120,48.852600402,2.4063849896,0,,33,9,#B6BD00
1745,,Porte de Montreuil,Rue d'Avron - 75120,48.853379878,2.4104581874,0,,34,9,#B6BD00
1704,,Robespierre,185 rue de Paris - 93048,48.855680808,2.4236590855,0,,35,9,#B6BD00
1993,,Croix-de-Chavaux (Jacques Duclos),Rue de Paris - 93048,48.857999073,2.4358668957,0,,36,9,#B6BD00
1873,,Mairie de Montreuil,Place Jean Jaurès - 93048,48.862280986,2.4418276791,0,,37,9,#B6BD00
2005,,Boulogne Pont de Saint-Cloud,Musée Albert Kahn - 92012,48.840680163,2.2283136617,0,,1,10,#C9910D
2004,,Boulogne-Jean-Jaurès,Rue du Chateau - 92012,48.842280144,2.2388629754,0,,2,10,#C9910D
1817,,Michel-Ange-Molitor,34 rue Molitor - 75116,48.844984487,2.262320039,0,,3,10,#C9910D
2026,,Chardon-Lagache,11 rue Chardon Lagache - 75116,48.84510414,2.266936059,0,,4,10,#C9910D
1818,,Mirabeau,63 avenue de Versailles - 75116,48.847084859,2.2730749149,0,,5,10,#C9910D
1903,,Javel-André-Citroen,Rue de la Convention - 75115,48.84596388,2.2778151264,0,,6,10,#C9910D
2031,,Charles Michels,36 rue des Entrepreneurs - 75115,48.846362976,2.2856310659,0,,7,10,#C9910D
2057,,Avenue Emile-Zola,Rue du Commerce - 75115,48.846852152,2.2954488279,0,,8,10,#C9910D
1916,,La Motte-Picquet-Grenelle,Face au 130-113 boulevard de Grenelle - 75115,48.848821267,2.297952964,0,,9,10,#C9910D
1661,,Ségur,UNESCO - Miollis - 75115,48.846864702,2.3072688476,0,,10,10,#C9910D
1927,,Duroc,bd du Montparnasse - 75107,48.846848769,2.3169373108,0,,11,10,#C9910D
1690,,Vaneau,97 rue de Sèvres - 75107,48.84870085,2.3212398819,0,,12,10,#C9910D
1666,,Sèvres-Babylone,Square Boucicaut - 75107,48.850939288,2.3261146548,0,,13,10,#C9910D
1867,,Mabillon,Place d' Arcadie - 75106,48.852845134,2.3351437185,0,,14,10,#C9910D
1653,,Odéon,Carrefour de l' Odéon - 75106,48.852314881,2.3388617203,0,,15,10,#C9910D
1977,,Cluny-La Sorbonne,Rue Saint Jacques - 75105,48.850795756,2.3450308884,0,,16,10,#C9910D
1811,,Maubert-Mutualité,Panthéon - 75105,48.84971694,2.3489255585,0,,17,10,#C9910D
2018,,Cardinal-Lemoine,55 rue du Cardinal Lemoine - 75105,48.846705869,2.351335179,0,,18,10,#C9910D
1908,,Jussieu,39 rue Liné - 75105,48.845761757,2.3545485949,0,,19,10,#C9910D
1952,,Gare d'Austerlitz,SNCF/RER C grandes lignes et banlieue - 75113,48.843719861,2.3639162172,0,,20,10,#C9910D
1875,,Mairie des Lilas,Place du Colonel Fabien - 93045,48.880051062,2.4156602061,0,,1,11,#704B1C
1753,,Porte des Lilas,Rue de Belleville - 75120,48.877234717,2.406526843,0,,2,11,#704B1C
1682,,Télégraphe,Rue de Belleville - 75120,48.875522449,2.3986765111,0,,3,11,#704B1C
1798,,Place des Fêtes,Rue de Crimée - 75119,48.876729469,2.3931460318,0,,4,11,#704B1C
1905,,Jourdain,7 rue du Jourdain - 75120,48.875248295,2.3893294342,0,,5,11,#704B1C
1758,,Pyrénées,401 rue des Pyrénées - 75120,48.873821172,2.3848863722,0,,6,11,#704B1C
2066,,Belleville,Terre-plein face au 1 boulevard de la Villette - 7,48.871945798,2.3767510414,0,,7,11,#704B1C
1963,,Goncourt (Hôpital Saint-Louis),152 avenue Parmentier - 75110,48.870015355,2.370768799,0,,8,11,#704B1C
967988,,République,Av de la République - 75111,48.867240185,2.3630564459,0,,9,11,#704B1C
2051,,Arts-et-Métiers,Rue des Vertus - 75103,48.865381176,2.3556449312,0,,10,11,#704B1C
1761,,Rambuteau,Centre Georges Pompidou - 75104,48.861193396,2.3532869599,0,,11,11,#704B1C
1893,,Hôtel de Ville,Rue du Renard - 75104,48.857805373,2.3514607765,0,,12,11,#704B1C
1965,,Châtelet,Théâtre du Châtelet - 75101,48.858857284,2.3477698567,0,,13,11,#704B1C
1870,,Mairie d'Issy,Rue du Général Leclerc - 92040,48.824346526,2.2735658296,0,,1,12,#007852
1986,,Corentin-Celton,Rue Ernest Renan - 92040,48.826829887,2.2789668616,0,,2,12,#007852
1750,,Porte de Versailles,Palais des Sports - 75115,48.832253453,2.2878641378,0,,3,12,#007852
1984,,Convention,337 rue de Vaugirard - 75115,48.83713695,2.2963960902,0,,4,12,#007852
1691,,Vaugirard (Adolphe Chérioux),Square de Vergenne - 75115,48.839439281,2.3010780425,0,,5,12,#007852
1632,,Volontaires,25 rue des Volontaires - 75115,48.841418443,2.3079936494,0,,6,12,#007852
1782,,Pasteur,183 rue de Vaugirard - 75115,48.842830542,2.3126633078,0,,7,12,#007852
1938,,Falguière,138 rue du Cherche-Midi - 75115,48.844323383,2.3175646762,0,,8,12,#007852
1826,,Montparnasse-Bienvenue,"Raoul Dautry (place, SNCF Montparnasse) - 75114",48.844027636,2.3235697972,0,,9,12,#007852
1842,,Notre-Dame des Champs,Terre-plein face au 112 boulevard Raspail - 75106,48.844783048,2.3284444833,0,,10,12,#007852
1646,,Rennes,Terre-plein face au 78 boulevard Raspail - 75106,48.848198269,2.3280217486,0,,11,12,#007852
1667,,Sèvres-Babylone,Square Boucicaut - 75107,48.851577469,2.3268907883,0,,12,12,#007852
1710,,Rue du Bac,Terre-plein face au 2 boulevard Raspail - 75107,48.855891338,2.3257049939,0,,13,12,#007852
1669,,Solférino,Rue de Solférino - 75107,48.85853336,2.3230892488,0,,14,12,#007852
2052,,Assemblée Nationale,Angle avec le 239 bd Saint-Germain et la rue de Co,48.861453904,2.3203096905,0,,15,12,#007852
1982,,Concorde,Place de la Concorde - 75108,48.865489391,2.3214117892,0,,16,12,#007852
1869,,Madeleine,Rue De Sèze - 75108,48.869794715,2.324612012,0,,17,12,#007852
1723,,Saint-Lazare,Rue de l' Arcade - 75108,48.875420978,2.3266952721,0,,18,12,#007852
1686,,Trinité-d'Estienne d'Orves,50 rue de Chateaudun - 75109,48.876329037,2.3318045685,0,,19,12,#007852
1841,,Notre-Dame de Lorette,Rue de Chateaudun - 75109,48.876050554,2.337908692,0,,20,12,#007852
1720,,Saint-Georges,Place Saint-Georges - 75109,48.878593955,2.3378269689,0,,21,12,#007852
1792,,Pigalle,26 boulevard de Clichy - 75118,48.88202709,2.3372138017,0,,22,12,#007852
2037,,Abbesses,Place des Abbesses - 75118,48.884399715,2.3383993842,0,,23,12,#007852
1920,,Lamarck-Caulaincourt,Lamarck (53/53 bis rue) - 75118,48.889738108,2.3391490867,0,,24,12,#007852
1906,,Jules Joffrin,2 place Jules Joffrin - 75118,48.892496977,2.3443284106,0,,25,12,#007852
1883,,Marcadet-Poissonniers,88 boulevard Barbès - 75118,48.891606823,2.349548311,0,,26,12,#007852
1886,,Marx-Dormoy,4 rue de la Chapelle - 75118,48.890374081,2.3597970087,0,,27,12,#007852
1743,,Porte de la Chapelle,Rue Raymond Queneau - 75118,48.897959343,2.3592550696,0,,28,12,#007852
3901291,,Front Populaire,Place du Front Populaire - 93001,48.906666588,2.3652301359,0,,29,12,#007852
1969,,Châtillon Montrouge,r. de l'Avenir - 92020,48.810283364,2.301288871,0,,1,13,#6EC4E8
1880,,Malakoff-Rue Etienne Dolet,87 rue Guy Môquet - 92020,48.814704061,2.2972847302,0,,2,13,#6EC4E8
1879,,Malakoff-Plateau de Vanves,r. Jean Bleuzen - 92020,48.822442694,2.2979321053,0,,3,13,#6EC4E8
1749,,Porte de Vanves,9 boulevard Brune - 75114,48.827765327,2.3043123508,0,,4,13,#6EC4E8
1799,,Plaisance,Rue Raymond Losserand - 75114,48.831758094,2.3138665498,0,,5,13,#6EC4E8
1787,,Pernety,Rue Niepce - 75114,48.83393382,2.3179089722,0,,6,13,#6EC4E8
1948,,Gaîté,Rue de la Gaîté - 75114,48.838751821,2.3225091862,0,,7,13,#6EC4E8
1827,,Montparnasse-Bienvenue,"Raoul Dautry (place, SNCF Montparnasse) - 75114",48.84207702,2.3210104496,0,,8,13,#6EC4E8
1928,,Duroc,bd du Montparnasse - 75107,48.846992501,2.3165423448,0,,9,13,#6EC4E8
1719,,Saint-François-Xavier,Avenue de Villars - 75107,48.85098256,2.3144298646,0,,10,13,#6EC4E8
1638,,Varenne,13 boulevard des Invalides - 75107,48.856393069,2.3147543648,0,,11,13,#6EC4E8
1897,,Invalides,Rue de l' Université - 75107,48.86085079,2.3145481126,0,,12,13,#6EC4E8
2025,,Champs-Elysées-Clémenceau,Clémenceau (place) - 75108,48.86736657,2.3141910634,0,,13,13,#6EC4E8
1820,,Miromesnil,29 rue de la Boétie - 75108,48.873460326,2.3160412889,0,,14,13,#6EC4E8
1724,,Saint-Lazare,Rue de l' Arcade - 75108,48.876067814,2.3241881008,0,,15,13,#6EC4E8
1858,,Liège,Terre-plein face au 21 rue de Liège - 75108,48.879537166,2.3268579473,0,,16,13,#6EC4E8
1796,,Place de Clichy,Terre-plein face au 7 place de Clichy - 75109,48.883204,2.3272660246,0,,17,13,#6EC4E8
1656,,La Fourche,Avenue de Clichy - 75117,48.887436843,2.325725222,0,,18,13,#6EC4E8
2009,,Brochant,Marché des Batignolles - 75117,48.890626633,2.3201911213,0,,19,13,#6EC4E8
1741,,Porte de Clichy,2 avenue de la Porte de Clichy - 75117,48.89443606,2.3135656655,0,,20,13,#6EC4E8
1872,,Mairie de Clichy,Hôpital Gouin - 92024,48.904005432,2.3053681209,0,,21,13,#6EC4E8
1947,,Gabriel-Péri,Gare routière - 92004,48.916574836,2.2943289647,0,,22,13,#6EC4E8
1662795,,Les Agnettes,Angle rue des Bas et Rue Louis Calmel - 92004,48.922916332,2.2859638966,0,,23,13,#6EC4E8
1662797,,Asnières-Gennevilliers Les Courtilles,Angle Boulevard Pierre de Coubertin / Avenue Lucie,48.930293623,2.2837606332,0,,24,13,#6EC4E8
1716,,Basilique de Saint-Denis,Place du Cacquet - 93066,48.936477493,2.3596397453,0,,25,13,#6EC4E8
140078,,Saint-Denis-Université,Gare Routière - 93066,48.946110872,2.362045193,0,,26,13,#6EC4E8
1166840,,Saint-Lazare,Rue de l' Arcade - 75108,48.87553767,2.32519649,0,,1,14,#62259D
1166838,,Madeleine,Rue De Sèze - 75108,48.869578971,2.3241624888,0,,2,14,#62259D
6129304,,Pyramides,Rue de l'Echelle - 75101,48.866613831,2.3344075309,0,,3,14,#62259D
1166834,,Châtelet,Théâtre du Châtelet - 75101,48.858956181,2.3473612552,0,,4,14,#62259D
1166832,,Gare de Lyon,Rue de Bercy - 75112,48.844652151,2.3731081475,0,,5,14,#62259D
1166830,,Bercy,Rue de Bercy - 75112,48.840542783,2.3794094631,0,,6,14,#62259D
1166828,,Cour Saint-Emilion,Rue François Truffaut - 75112,48.833520861,2.3862652367,0,,7,14,#62259D
1166826,,Bibliothèque-François Mitterrand,Face au 62 rue du Chevaleret - 75113,48.829830695,2.3761200093,0,,8,14,#62259D
1166824,,Olympiades,Rue de Tolbiac - 75113,48.826948282,2.3670384334,0,,9,14,#62259D
22789,,Antony,Rue Velpeau - 92002,48.754494894,2.3007701501,0,,1,orv,#050D9E
22791,,Orly 1-2-3,AEROGARE - 94054,48.729564991,2.3595642394,0,,2,orv,#050D9E
22793,,Orly 4,AEROGARE - 94054,48.728924576,2.3693599439,0,,3,orv,#050D9E
1670,,Saint-Germain-en-Laye,Rue de la Salle - 78551,48.898478199,2.0945388041,0,,1,A,#E2231A
1851,,Le Vésinet-Le Pecq,Avenue Georges Bizet - 78650,48.898350894,2.1218289254,0,,2,A,#E2231A
1850,,Le Vésinet-Centre,Rue Maurice Berteaux - 78650,48.890095706,2.1343746143,0,,3,A,#E2231A
1970,,Chatou-Croissy,Place Maurice Berteaux - 78146,48.885196016,2.1556393056,0,,4,A,#E2231A
1713,,Rueil-Malmaison,Gare routière - 92063,48.887168137,2.1706233783,0,,5,A,#E2231A
1831,,Nanterre-Ville,Rue Maurice Thorez - 92050,48.895325147,2.1958404739,0,,6,A,#E2231A
1830,,Nanterre-Université,Rue de la Folie - 92050,48.900989014,2.2137917122,0,,7,A,#E2231A
1829,,Nanterre-Préfecture,Rue des Longues Raies - 92050,48.895659932,2.2231003281,0,,8,A,#E2231A
1913,,La Défense (Grande Arche),Parvis de la Défense - 92062,48.892005654,2.2369831238,0,,9,A,#E2231A
2084,,Charles de Gaulle-Etoile,Avenue Friedland - 75117,48.873904099,2.295031901,0,,10,A,#E2231A
2053,,Auber,Rue des Mathurins - 75109,48.87260818,2.3297068164,0,,11,A,#E2231A
1967,,Châtelet-Les Halles,Place Marguerite de Navarre - 75101,48.861463711,2.3468441316,0,,12,A,#E2231A
1956,,Gare de Lyon,Rue de Bercy - 75112,48.844472156,2.3739114213,0,,13,A,#E2231A
1835,,Nation,Terre-plein face au 3 place de la Nation - 75112,48.84844482,2.3959072371,0,,14,A,#E2231A
1631,,Vincennes,Rue de Montreuil - 94080,48.847323871,2.4335315969,0,,15,A,#E2231A
1943,,Fontenay-sous-Bois,Place Moreau David - 94033,48.843411859,2.4648154033,0,,16,A,#E2231A
1838,,Nogent-sur-Marne,Sortie Parking - 94052,48.835108774,2.4716839162,0,,17,A,#E2231A
1904,,Joinville-le-Pont,Hippodrome de Vincennes - 94042,48.821069678,2.4638349563,0,,18,A,#E2231A
1671,,Saint-Maur Créteil,Rue Leroux - 94068,48.806419609,2.4720450509,0,,19,A,#E2231A
1848,,Le Parc de Saint-Maur,Place de la Louvière - 94068,48.805280012,2.4855943248,0,,20,A,#E2231A
2024,,Champigny,Rue La Fayette - 94068,48.807035802,2.5099016684,0,,21,A,#E2231A
1919,,La Varenne-Chennevières,Place de la Gare de la Varenne - 94068,48.794933545,2.5130447577,0,,22,A,#E2231A
1680,,Sucy Bonneuil,Portes de Sucy - 94071,48.771051533,2.5075112683,0,,23,A,#E2231A
2074,,Boissy-Saint-Léger,Place de la Gare - 94004,48.752988645,2.505222846,0,,24,A,#E2231A
1636,,Torcy,Rue Léon Blum - 77468,48.839597138,2.6545815812,0,,25,A,#E2231A
2012,,Bussy-Saint-Georges,Rocade de la Gare - 77058,48.836650828,2.7098540585,0,,26,A,#E2231A
161468,,Val d'europe,Place Jean Monnet - 77449,48.855497048,2.7736084332,0,,27,A,#E2231A
1885,,Marne-la-Vallée Chessy,Parc Disneyland - 77111,48.870167774,2.7824920526,0,,28,A,#E2231A
2056,,Aulnay-sous-Bois,"General De Gaulle (5, place) - 93005",48.932108763,2.4933095626,0,,1,B,#7BA3DC
2070,,Blanc-Mesnil,Pierre Semart (rue) - 93007,48.93220117,2.4767508712,0,,2,B,#7BA3DC
1999,,Drancy,"Anatole France (169, rue) - 93029",48.932709809,2.4551053452,0,,3,B,#7BA3DC
1923,,Le Bourget,Deportes (place des) - 93013,48.93068623,2.4256937696,0,,4,B,#7BA3DC
2054,,La Courneuve-Aubervilliers,Place de la Gare - 93001,48.924023435,2.3844006647,0,,5,B,#7BA3DC
1918,,La Plaine-Stade de France,Avenue du Stade de France - 93066,48.918116641,2.3626045186,0,,6,B,#7BA3DC
2077,,Gare du Nord,Rue du Faubourg St Denis - 75110,48.880839206,2.3565770154,0,,7,B,#7BA3DC
1968,,Châtelet-Les Halles,Place Marguerite de Navarre - 75101,48.861796248,2.3468033287,0,,8,B,#7BA3DC
1672,,Saint-Michel Notre-Dame,Rue Xavier Privas - 75105,48.853680781,2.3442413996,0,,9,B,#7BA3DC
1866,,Luxembourg,Rue de l'Abbé de l'Epée - 75105,48.846778559,2.3404411812,0,,10,B,#7BA3DC
1650,,Port-Royal,47 avenue de l' Observatoire - 75105,48.839885166,2.3368734409,0,,11,B,#7BA3DC
1998,,Denfert-Rochereau,2 avenue du Général Leclerc - 75114,48.833315186,2.3334427638,0,,12,B,#7BA3DC
1976,,Cité Universitaire,24 boulevard Jourdan - 75114,48.820768472,2.3394051703,0,,13,B,#7BA3DC
1960,,Gentilly,Romain Rolland - 94037,48.815249979,2.3409291775,0,,14,B,#7BA3DC
1921,,Laplace,Maison des Examens - 94003,48.807583413,2.3333494015,0,,15,B,#7BA3DC
2047,,Arcueil-Cachan,Rue de la Gare - 94016,48.798442508,2.328044199,0,,16,B,#7BA3DC
2059,,Bagneux,Avenue Aristide Briand - 94016,48.793228768,2.3208488828,0,,17,B,#7BA3DC
2006,,Bourg-la-Reine,Rue des Blagis - 92014,48.780050938,2.312162626,0,,18,B,#7BA3DC
1660,,Sceaux,Rue Jean-Louis Sinet - 92071,48.781484949,2.2972966909,0,,19,B,#7BA3DC
1942,,Fontenay-aux-Roses,École Normale Supérieure - 92032,48.787630848,2.292095993,0,,20,B,#7BA3DC
1705,,Robinson,Gare (2 Avenue de la) - 92071,48.780031321,2.2810593785,0,,21,B,#7BA3DC
2059,,Bagneux,Avenue Aristide Briand - 94016,48.793228768,2.3208488828,0,,22,B,#7BA3DC
2006,,Bourg-la-Reine,Rue des Blagis - 92014,48.780050938,2.312162626,0,,23,B,#7BA3DC
1660,,Sceaux,Rue Jean-Louis Sinet - 92071,48.781484949,2.2972966909,0,,24,B,#7BA3DC
1942,,Fontenay-aux-Roses,École Normale Supérieure - 92032,48.787630848,2.292095993,0,,25,B,#7BA3DC
1705,,Robinson,Gare (2 Avenue de la) - 92071,48.780031321,2.2810593785,0,,26,B,#7BA3DC
2011,,Bures-sur-Yvette,Impasse de la Station - 91122,48.69573265,2.1630896752,0,,27,B,#7BA3DC
1914,,La Hacquinière,Avenue des Tilleuls - 91122,48.695060732,2.1526641368,0,,28,B,#7BA3DC
2078,,Gif-sur-Yvette,Rue du Clos - 91272,48.69819921,2.1369288994,0,,29,B,#7BA3DC
1988,,Courcelle-sur-Yvette,Rue de Madrid - 91272,48.70093369,2.0990454282,0,,30,B,#7BA3DC
1673,,Saint-Rémy-lès-Chevreuse,2 rue Ditte - 78575,48.702868684,2.0706002145,0,,31,B,#7BA3DC
1673,,Saint-Rémy-lès-Chevreuse,2 rue Ditte - 78575,48.702868684,2.0706002145,0,,32,B,#7BA3DC
1914,,La Hacquinière,Avenue des Tilleuls - 91122,48.695060732,2.1526641368,0,,33,B,#7BA3DC
2078,,Gif-sur-Yvette,Rue du Clos - 91272,48.69819921,2.1369288994,0,,34,B,#7BA3DC
1988,,Courcelle-sur-Yvette,Rue de Madrid - 91272,48.70093369,2.0990454282,0,,35,B,#7BA3DC
1673,,Saint-Rémy-lès-Chevreuse,2 rue Ditte - 78575,48.702868684,2.0706002145,0,,36,B,#7BA3DC
1914,,La Hacquinière,Avenue des Tilleuls - 91122,48.695060732,2.1526641368,0,,37,B,#7BA3DC
2078,,Gif-sur-Yvette,Rue du Clos - 91272,48.69819921,2.1369288994,0,,38,B,#7BA3DC
1988,,Courcelle-sur-Yvette,Rue de Madrid - 91272,48.70093369,2.0990454282,0,,39,B,#7BA3DC
1673,,Saint-Rémy-lès-Chevreuse,2 rue Ditte - 78575,48.702868684,2.0706002145,0,,40,B,#7BA3DC
8303760,,GARE DE NOISY-LE-SEC,118 RUE JEAN JAURES - 93053,48.895803743,2.4604190621,0,,1,T1,#003CA6
8303762,,PETIT NOISY,72 AVENUE GALLIENI - 93053,48.90002259,2.4652682832,0,,2,T1,#003CA6
8303764,,PONT DE BONDY,ROUTE DE STAINS - 93053,48.904726603,2.4700513746,0,,3,T1,#003CA6
8303766,,AUGUSTE DELAUNE,279 AVENUE PAUL VAILLANT-COUTURIER - 93008,48.906723202,2.4603086864,0,,4,T1,#003CA6
8303768,,JEAN ROSTAND,247 AVENUE PAUL VAILLANT-COUTURIER - 93008,48.907834689,2.4542716481,0,,5,T1,#003CA6
8303770,,BOBIGNY - PABLO PICASSO,RUE CARNOT - 93008,48.9066436,2.4499199449,0,,6,T1,#003CA6
8303772,,HOTEL DE VILLE DE BOBIGNY,BOULEVARD LENINE - 93008,48.906676468,2.4434851094,0,,7,T1,#003CA6
8303774,,LIBERATION,142 AVENUE JEAN JAURES - 93008,48.906986138,2.4387686026,0,,8,T1,#003CA6
8303776,,LA FERME,188 AVENUE JEAN JAURES - 93008,48.909737143,2.4376287301,0,,9,T1,#003CA6
8303778,,ESCADRILLE NORMANDIE-NIEMEN,RUE DE STALINGRAD - 93008,48.912902739,2.4350305951,0,,10,T1,#003CA6
8303780,,GASTON ROULAUD,FACE 73 BIS RUE DE STALINGRAD - 93008,48.914254052,2.4309698355,0,,11,T1,#003CA6
8303782,,HOPITAL AVICENNE,124 RUE DE STALINGRAD - 93029,48.915866684,2.42579119,0,,12,T1,#003CA6
8303783,,DRANCY - AVENIR,230 RUE DE STALINGRAD - 93029,48.918083495,2.4172859438,0,,13,T1,#003CA6
8303784,,MAURICE LACHATRE,286 RUE DE STALINGRAD - 93029,48.919091976,2.4143420096,0,,14,T1,#003CA6
8303785,,LA COURNEUVE - 8 MAI 1945,PLACE DU 8 MAI 1945 - 93027,48.920549824,2.411248598,0,,15,T1,#003CA6
8303787,,DANTON,97 AVENUE JEAN JAURES - 93027,48.922835208,2.4067651178,0,,16,T1,#003CA6
8303789,,STADE GEO ANDRE,31 AVENUE JEAN JAURES - 93027,48.924446512,2.4020758267,0,,17,T1,#003CA6
8303791,,HOTEL DE VILLE DE LA COURNEUVE,76 RUE DE LA CONVENTION - 93027,48.927416823,2.3929143193,0,,18,T1,#003CA6
8303793,,LA COURNEUVE - SIX ROUTES,RUE DE SAINT-DENIS - 93027,48.930242387,2.3843790474,0,,19,T1,#003CA6
8303795,,COSMONAUTES,63 ROUTE DE LA COURNEUVE - 93066,48.931817368,2.3782152527,0,,20,T1,#003CA6
8303796,,HOPITAL DELAFONTAINE,ROUTE DE LA COURNEUVE - 93066,48.933616947,2.3711918916,0,,21,T1,#003CA6
8303798,,CIMETIERE DE SAINT-DENIS,BOULEVARD DE LA COMMUNE DE PARIS - 93066,48.936422657,2.364073078,0,,22,T1,#003CA6
8303800,,BASILIQUE DE SAINT-DENIS,3 RUE EDOUARD VAILLANT - 93066,48.937618355,2.3620002027,0,,23,T1,#003CA6
8303802,,MARCHE DE SAINT-DENIS,FACE 3 BOULEVARD CARNOT - 93066,48.938635016,2.3556436661,0,,24,T1,#003CA6
8303804,,THEATRE GERARD PHILIPE,FACE 46 BIS BOULEVARD JULES GUESDE - 93066,48.937251775,2.3500502359,0,,25,T1,#003CA6
8303806,,GARE DE SAINT-DENIS,RUE DU PORT - 93066,48.93603897,2.345248306,0,,26,T1,#003CA6
8303808,,L'ILE-SAINT-DENIS,1 RUE MECHIN - 93039,48.93588643,2.3399692331,0,,27,T1,#003CA6
8303810,,MAIRIE DE VILLENEUVE-LA GARENNE,12 AVENUE DE VERDUN - 92078,48.935778578,2.3341172701,0,,28,T1,#003CA6
8303812,,LA NOUE,AVENUE DE VERDUN - 92078,48.935131108,2.3268058643,0,,29,T1,#003CA6
8303814,,CHEMIN DES RENIERS,102 AVENUE DE VERDUN - 92078,48.934771064,2.3215952045,0,,30,T1,#003CA6
8303816,,PARC DES CHANTERAINES,AVENUE DU GENERAL DE GAULLE - 92036,48.93408673,2.3135202468,0,,31,T1,#003CA6
8303818,,GARE DE GENNEVILLIERS,35 AVENUE DU GENERAL DE GAULLE - 92036,48.933438207,2.3070277563,0,,32,T1,#003CA6
8303820,,TIMBAUD,12 RUE PIERRE TIMBAUD - 92036,48.933499386,2.3008350122,0,,33,T1,#003CA6
8303822,,LE VILLAGE,92 RUE PIERRE TIMBAUD - 92036,48.933398479,2.2946423866,0,,34,T1,#003CA6
8303824,,LE LUTH,28 AVENUE LUCIEN LANTERNIER - 92036,48.931733536,2.2884512588,0,,35,T1,#003CA6
8303826,,LES COURTILLES,AVENUE DE LA REDOUTE - 92004,48.930113627,2.2831879628,0,,36,T1,#003CA6
8303828,,QUATRE ROUTES,AVENUE DE LA REDOUTE - 92004,48.927404367,2.2745983949,0,,37,T1,#003CA6
4009351,,PONT DE BEZONS,PL LENINE - 95063,48.923325386,2.2173115375,0,,1,T2,#CF009E
4009353,,PARC PIERRE LAGRAVERE,195 BD CHARLES DE GAULLE - 92025,48.917580644,2.2244020004,0,,2,T2,#CF009E
4009355,,VICTOR BASCH,117 BD CHARLES DE GAULLE - 92025,48.913757224,2.2298643857,0,,3,T2,#CF009E
4009357,,JACQUELINE AURIOL,FACE 68 BD CHARLES DE GAULLE - 92025,48.910687372,2.2340701231,0,,4,T2,#CF009E
4009359,,CHARLEBOURG,89 BD NATIONAL - 92035,48.907437579,2.2382211718,0,,5,T2,#CF009E
4009361,,LES FAUVELLES,7 BD NATIONAL - 92035,48.902432659,2.2392940456,0,,6,T2,#CF009E
4009363,,FAUBOURG DE L'ARCHE,FACE 20 BD DE LA MISSION MARCHAND - 92026,48.896807298,2.2399998438,0,,7,T2,#CF009E
4009365,,LA DEFENSE,PL CARPEAUX - 92062,48.893066505,2.2374172216,0,,8,T2,#CF009E
4009367,,PUTEAUX,SQ DU SOUVENIR FRANCAIS - 92062,48.882997246,2.2332258571,0,,9,T2,#CF009E
4009369,,BELVEDERE,18 R ROGER SALENGRO - 92073,48.876142345,2.2259228541,0,,10,T2,#CF009E
4009371,,SURESNES LONGCHAMP,R CLUSERET - 92073,48.868112325,2.2213763438,0,,11,T2,#CF009E
4009373,,LES COTEAUX,3 AV DE SURESNES - 92064,48.857281643,2.2204879827,0,,12,T2,#CF009E
4009375,,LES MILONS,3 AV ANDRE CHEVRILLON - 92064,48.849966396,2.2210491848,0,,13,T2,#CF009E
4009377,,PARC DE ST-CLOUD,3 R DANTAN - 92064,48.842893832,2.22167777,0,,14,T2,#CF009E
4009379,,MUSEE DE SEVRES,QUAI DE SEVRES - 92072,48.828759684,2.2251669025,0,,15,T2,#CF009E
4009381,,BRIMBORION,CHE DES LACETS - 92048,48.822123468,2.2313606582,0,,16,T2,#CF009E
4009382,,MEUDON SUR-SEINE,SEN DESLANDES - 92048,48.819145789,2.2386210142,0,,17,T2,#CF009E
4009384,,LES MOULINEAUX,R JEAN-JACQUES ROUSSEAU - 92040,48.821474528,2.251410827,0,,18,T2,#CF009E
4009386,,JACQUES-HENRI LARTIGUE,FACE 14 R JACQUES-HENRI LARTIGUE - 92040,48.824716352,2.2605797776,0,,19,T2,#CF009E
4009388,,ISSY - VAL DE SEINE,MAIL FELIX AMIOT - 92040,48.829103646,2.2626560674,0,,20,T2,#CF009E
4009390,,HENRI FARMAN,0 CW / 15 - 75115,48.83479819,2.2718103602,0,,21,T2,#CF009E
4009392,,SUZANNE LENGLEN,PL DES MARTYRS DE LA RESISTANCE DE LA PORTE DE SEV,48.833551237,2.2761820445,0,,22,T2,#CF009E
4009394,,PORTE D'ISSY,FACE 2 R D'ORADOUR-SUR-GLANE - 92040,48.83169317,2.2809898203,0,,23,T2,#CF009E
4009396,,PORTE DE VERSAILLES,FACE 3 AV ERNEST RENAN - 75115,48.832208305,2.2873604739,0,,24,T2,#CF009E
3813500,,PONT GARIGLIANO - HOPITAL EUROPEEN GEORGE POMPIDOU,BD DU GENERAL MARTIAL VALIN - 75115,48.837880583,2.2711801735,0,,1,T3a,#FF7E2E
3813502,,BALARD,1 TER BD VICTOR - 75115,48.835718625,2.2789296472,0,,2,T3a,#FF7E2E
3813504,,DESNOUETTES,19 BOULEVARD VICTOR - 75115,48.834022489,2.284322768,0,,3,T3a,#FF7E2E
3813506,,PORTE DE VERSAILLES - PARC DES EXPOSITIONS,75 BOULEVARD VICTOR - 75115,48.832613025,2.2880271613,0,,4,T3a,#FF7E2E
3813508,,GEORGES BRASSENS,87 BOULEVARD LEFEBVRE - 75115,48.829461543,2.2964157463,0,,5,T3a,#FF7E2E
3813510,,BRANCION,167 BOULEVARD LEFEBVRE - 75115,48.828546198,2.3007044793,0,,6,T3a,#FF7E2E
3813512,,PORTE DE VANVES,17 BOULEVARD BRUNE - 75114,48.827271571,2.3064225868,0,,7,T3a,#FF7E2E
3813514,,DIDOT,83 BOULEVARD BRUNE - 75114,48.825727285,2.3133383996,0,,8,T3a,#FF7E2E
3813516,,JEAN MOULIN,139 BOULEVARD BRUNE - 75114,48.824568821,2.3186202709,0,,9,T3a,#FF7E2E
3813518,,PORTE D'ORLEANS,FACE 201 BOULEVARD BRUNE - 75114,48.822835142,2.3261615201,0,,10,T3a,#FF7E2E
3813520,,MONTSOURIS,FACE 38 BOULEVARD JOURDAN - 75114,48.821217828,2.3338928088,0,,11,T3a,#FF7E2E
3813522,,CITE UNIVERSITAIRE,FACE 24 BOULEVARD JOURDAN - 75114,48.82004946,2.3391601514,0,,12,T3a,#FF7E2E
3813524,,STADE CHARLETY - PORTE DE GENTILLY,97 BOULEVARD KELLERMANN - 75113,48.819491931,2.3458019879,0,,13,T3a,#FF7E2E
3813526,,POTERNE DES PEUPLIERS,63-65 BOULEVARD KELLERMANN - 75113,48.820848498,2.3517500953,0,,14,T3a,#FF7E2E
3813528,,PORTE D'ITALIE,FACE 164 BOULEVARD MASSENA - 75113,48.818995705,2.3601879223,0,,15,T3a,#FF7E2E
3813530,,PORTE DE CHOISY,FACE 128 BOULEVARD MASSENA - 75113,48.819713907,2.3640808202,0,,16,T3a,#FF7E2E
3813532,,PORTE D'IVRY,FACE 72 BD MASSENA - 75113,48.821671675,2.3702475859,0,,17,T3a,#FF7E2E
3813534,,MARYSE BASTIE,BD DU GENERAL JEAN SIMON - 75113,48.824132011,2.3776674618,0,,18,T3a,#FF7E2E
3813536,,AVENUE DE FRANCE,BD DU GENERAL JEAN SIMON - 75113,48.825389094,2.3810305828,0,,19,T3a,#FF7E2E
3813538,,BARON LE ROY,30 BD PONIATOWSKI - 75112,48.830174454,2.3931094993,0,,20,T3a,#FF7E2E
3813540,,PORTE DE CHARENTON,FACE 15 BD PONIATOWSKI - 75112,48.831843506,2.3984886704,0,,21,T3a,#FF7E2E
3813542,,PORTE DOREE,2 BD SOULT - 75112,48.836053743,2.4074521198,0,,22,T3a,#FF7E2E
3813544,,MONTEMPOIVRE,FACE 61 BD SOULT - 75112,48.839890492,2.4090367346,0,,23,T3a,#FF7E2E
3813546,,ALEXANDRA DAVID-NEEL,FACE 111 BD SOULT - 75112,48.843619616,2.410199314,0,,24,T3a,#FF7E2E
3813548,,PORTE DE VINCENNES,112 CRS DE VINCENNES - 75112,48.846864432,2.4096727924,0,,25,T3a,#FF7E2E
7647695,,PORTE DE VINCENNES,FACE 103 COURS DE VINCENNES - 75120,48.847223924,2.409686912,0,,1,T3b,#00AE41
7647697,,PORTE DE MONTREUIL,68-70 BOULEVARD DAVOUT - 75120,48.853181936,2.4108120075,0,,2,T3b,#00AE41
7647699,,MARIE DE MIRIBEL,108-112 BOULEVARD DAVOUT - 75120,48.858844637,2.4098121077,0,,3,T3b,#00AE41
7647701,,PORTE DE BAGNOLET,162-168 BOULEVARD DAVOUT - 75120,48.863572543,2.4089332971,0,,4,T3b,#00AE41
7647703,,SEVERINE,46 BOULEVARD MORTIER - 75120,48.867508894,2.4091294602,0,,5,T3b,#00AE41
7647705,,ADRIENNE BOLLAND,108 BOULEVARD MORTIER - 75120,48.872002765,2.4087950861,0,,6,T3b,#00AE41
7647707,,PORTE DES LILAS,164-166 BD MORTIER - 75120,48.876731095,2.4070984367,0,,7,T3b,#00AE41
7647708,,HOPITAL ROBERT DEBRE,1 BOULEVARD D'ALGERIE - 75119,48.879493514,2.4011747962,0,,8,T3b,#00AE41
7647710,,BUTTE DU CHAPEAU ROUGE,13 BOULEVARD D'INDOCHINE - 75119,48.885166743,2.3967800739,0,,9,T3b,#00AE41
7647712,,PORTE DE PANTIN - PARC DE LA VILLETTE,FACE 179 BIS BOULEVARD SERURIER - 75119,48.888896894,2.3958576137,0,,10,T3b,#00AE41
7647714,,DELPHINE SEYRIG,7-15 RUE DELPHINE SEYRIG - 93055,48.893973618,2.3979214734,0,,11,T3b,#00AE41
7647716,,ELLA FITZGERALD - GRANDS MOULINS DE PANTIN,FACE 16-18 RUE DE LA CLOTURE - 75119,48.897471019,2.3951039826,0,,12,T3b,#00AE41
7647718,,PORTE DE LA VILLETTE - CITE DES SCIENCES ET DE L'I,FACE 81 BOULEVARD MACDONALD - 75119,48.89769947,2.3867212307,0,,13,T3b,#00AE41
7647720,,CANAL SAINT-DENIS,FACE 137 BOULEVARD MACDONALD - 75119,48.898969161,2.3802612355,0,,14,T3b,#00AE41
7647722,,ROSA PARKS,VOIE NOUVELLE - 75119,48.897515796,2.3724904415,0,,15,T3b,#00AE41
7647724,,PORTE D'AUBERVILLIERS,FACE 1-3 BOULEVARD NEY - 75118,48.898775032,2.368783615,0,,16,T3b,#00AE41
7647726,,COLETTE BESSON,FACE 17-19 BOULEVARD NEY - 75118,48.898668492,2.3633856115,0,,17,T3b,#00AE41
7647728,,PORTE DE LA CHAPELLE,31 BOULEVARD NEY - 75118,48.898579452,2.359268964,0,,18,T3b,#00AE41
7647730,,DIANE ARBUS - PORTE DES POISSONNIERS,BOULEVARD NEY - 75118,48.898436827,2.351608227,0,,19,T3b,#00AE41
7647732,,PORTE DE CLIGNANCOURT - PUCES DE SAINT-OUEN,BOULEVARD NEY - 75118,48.898086935,2.345106141,0,,20,T3b,#00AE41
7647734,,ANGELIQUE COMPOINT - PORTE DE MONTMARTRE,BOULEVARD NEY - 75118,48.897916436,2.3379089685,0,,21,T3b,#00AE41
7647736,,PORTE DE SAINT-OUEN,BOULEVARD NEY - 75118,48.897745435,2.3295804776,0,,22,T3b,#00AE41
7647738,,EPINETTES - POUCHET,BOULEVARD BESSIERES - 75117,48.897637194,2.3248778379,0,,23,T3b,#00AE41
7647740,,HONORE DE BALZAC,BOULEVARD BESSIERES - 75117,48.896387184,2.3187171244,0,,24,T3b,#00AE41
7647742,,PORTE DE CLICHY - TRIBUNAL DE PARIS,BOULEVARD BESSIERES - 75117,48.894714788,2.3142061536,0,,25,T3b,#00AE41
7647744,,PORTE D'ASNIERES - MARGUERITE LONG,BOULEVARD BERTHIER - 75117,48.889805127,2.3031008427,0,,26,T3b,#00AE41
4146213,,GARGES-SARCELLES RER,0 AVENUE DU GENERAL DE GAULLE - 95585,48.976952372,2.3913430457,0,,1,T5,#62259D
4146215,,LOCHERES,18 AVENUE PAUL VALERY - 95585,48.978653755,2.3844367944,0,,2,T5,#62259D
4146217,,PAUL VALERY,44 AVENUE PAUL VALERY - 95585,48.979311349,2.3802597578,0,,3,T5,#62259D
4146219,,LES FLANADES,10 AVENUE AUGUSTE PERRET - 95585,48.976778179,2.3772952252,0,,4,T5,#62259D
4146221,,LES CHOLETTES,24 AVENUE DU 8 MAI 1945 - 95585,48.977696637,2.371398281,0,,5,T5,#62259D
4146223,,BUTTE PINSON (PARC REGIONAL),BOULEVARD JEAN MERMOZ - 93059,48.973609216,2.3658533181,0,,6,T5,#62259D
4146225,,JACQUES PREVERT,BOULEVARD JEAN MERMOZ - 93059,48.970859339,2.3657971976,0,,7,T5,#62259D
4146227,,ALCIDE D'ORBIGNY,BOULEVARD JEAN MERMOZ - 93059,48.965405152,2.3627914675,0,,8,T5,#62259D
4146229,,MAIRIE DE PIERREFITTE,BOULEVARD JEAN MERMOZ - 93059,48.963527533,2.3598834657,0,,9,T5,#62259D
4146231,,SUZANNE VALADON,62 AV LENINE - 93059,48.958926614,2.3585303984,0,,10,T5,#62259D
4146233,,JONCHEROLLES,144 AVENUE LENINE - 93059,48.954828772,2.3580374599,0,,11,T5,#62259D
4146235,,PETIT PIERREFITTE,178 AVENUE ELISEE RECLUS - 93059,48.952321536,2.3577089664,0,,12,T5,#62259D
4146237,,GUYNEMER (STADE AUGUSTE DELAUNE),32 AVENUE ROGER SEMAT - 93066,48.948214678,2.3572297966,0,,13,T5,#62259D
4146239,,ROGER SEMAT,6 AVENUE ROGER SEMAT - 93066,48.944700909,2.3568873589,0,,14,T5,#62259D
4146241,,BAUDELAIRE,134 RUE GABRIEL PERI - 93066,48.942139723,2.3565862505,0,,15,T5,#62259D
4146243,,MARCHE DE SAINT-DENIS,RUE GABRIEL PERI - 93066,48.939183116,2.3562577428,0,,16,T5,#62259D
6046775,,CHATILLON - MONTROUGE,FACE 8 RUE DE L'AVENIR - 92020,48.81036405,2.3006220245,0,,1,T6,#E2231A
6046777,,VAUBAN,FACE 90 AVENUE DE PARIS - 92020,48.807386926,2.2941471022,0,,2,T6,#E2231A
6046779,,CENTRE DE CHATILLON,AVENUE DE PARIS - 92020,48.804293077,2.2888295761,0,,3,T6,#E2231A
6046781,,PARC ANDRE MALRAUX,AVENUE DE VERDUN - 92020,48.800344655,2.2824523509,0,,4,T6,#E2231A
6046783,,DIVISION LECLERC,AVENUE DE VERDUN - 92020,48.794722404,2.2727995332,0,,5,T6,#E2231A
6046785,,SOLEIL LEVANT,FACE 117 AVENUE DU GENERAL DE GAULLE - 92023,48.790348706,2.2632150365,0,,6,T6,#E2231A
6046787,,HOPITAL BECLERE,AVENUE DU GENERAL DE GAULLE - 92023,48.786999804,2.2550042904,0,,7,T6,#E2231A
6046789,,MAIL DE LA PLAINE,RUE DE TOURAINE - 92023,48.783767334,2.2470120155,0,,8,T6,#E2231A
6046791,,PAVE BLANC (PARC NOVEOS),436 AVENUE DU GENERAL DE GAULLE - 92023,48.780930729,2.2401624084,0,,9,T6,#E2231A
6046793,,GEORGES POMPIDOU,RUE DE LA PORTE DE TRIVAUX - 92023,48.785044583,2.2369856047,0,,10,T6,#E2231A
6046795,,GEORGES MILLANDY,AVENUE DE VILLACOUBLAY - 92048,48.783403021,2.2303787276,0,,11,T6,#E2231A
6046796,,MEUDON-LA-FORET,RUE DU PETIT CLAMART - 92048,48.783515172,2.2252781413,0,,12,T6,#E2231A
6046798,,VELIZY 2,AVENUE MORANE SAULNIER - 78640,48.785019604,2.2195351309,0,,13,T6,#E2231A
6046800,,DEWOITINE,AVENUE MORANE SAULNIER - 78640,48.78344057,2.213486295,0,,14,T6,#E2231A
6046802,,INOVEL PARC NORD,7 AVENUE MORANE SAULNIER - 78640,48.781548286,2.2089482577,0,,15,T6,#E2231A
6046804,,LOUVOIS,AVENUE DE L'EUROPE - 78640,48.780231052,2.1965890249,0,,16,T6,#E2231A
6046806,,MAIRIE DE VELIZY,70 AVENUE DE L'EUROPE - 78640,48.780602705,2.1917327489,0,,17,T6,#E2231A
6046808,,L'ONDE (MAISON DES ARTS),4 AVENUE LOUIS BREGUET - 78640,48.782098728,2.1807392815,0,,18,T6,#E2231A
6046810,,ROBERT WAGNER,AVENUE ROBERT WAGNER - 78640,48.78515236,2.1790163044,0,,19,T6,#E2231A
6046812,,VIROFLAY - RIVE GAUCHE,RUE RIEUSSEC - 78686,48.801032576,2.1713760103,0,,20,T6,#E2231A
6046814,,VIROFLAY - RIVE DROITE,RUE GABRIEL PERI - 78686,48.805639799,2.1688576461,0,,21,T6,#E2231A
4284896,,PORTE DE L'ESSONNE,RUE PAUL DEMANGE - 91027,48.714533524,2.3716329867,0,,1,T7,#704B1C
4284898,,AEROPORT D'ORLY,PONT 14 - 91479,48.729913645,2.368029037,0,,2,T7,#704B1C
4284900,,COEUR D'ORLY,AVENUE DE L'UNION - 94054,48.73350799,2.3716183583,0,,3,T7,#704B1C
4284902,,CAROLINE AIGLE (ORLYFRET),AVENUE DU MARECHAL DEVAUX - 94054,48.738856524,2.3698417019,0,,4,T7,#704B1C
4284904,,HELENE BOUCHER (ORLYTECH),2 ALLEE HELENE BOUCHER - 91479,48.739838573,2.35981326,0,,5,T7,#704B1C
4284906,,LA FRATERNELLE,AVENUE DE LA GARE - 94065,48.741268789,2.3531140687,0,,6,T7,#704B1C
4284908,,ROBERT SCHUMAN (PARC SILIC CENTRE),6 RUE TRAVERSIERE - 94065,48.746643782,2.3529118397,0,,7,T7,#704B1C
4284910,,SAARINEN (PARC SILIC NORD),RUE SAARINEN - 94065,48.750220887,2.3543672853,0,,8,T7,#704B1C
4284912,,PORTE DE RUNGIS,PLACE DU RELAIS - 94065,48.752530712,2.355305951,0,,9,T7,#704B1C
4284914,,PLACE DE LA LOGISTIQUE (PLATEFORME SOGARIS),NR - 94065,48.752898017,2.3620209827,0,,10,T7,#704B1C
4284916,,LA BELLE EPINE,RUE LATERALE - 94065,48.756096182,2.3688601684,0,,11,T7,#704B1C
4284918,,PORTE DE THIAIS (MARCHE INTERNATIONAL),RUE DE LA POMPE - 94021,48.759862907,2.3661299157,0,,12,T7,#704B1C
4284920,,AUGUSTE PERRET (CIMETIERE PARISIEN),20 AVENUE DE LA REPUBLIQUE - 94021,48.762837717,2.3671648287,0,,13,T7,#704B1C
4284922,,BRETAGNE,AVENUE DE FONTAINEBLEAU - 94073,48.76827524,2.3682149242,0,,14,T7,#704B1C
4284923,,MOULIN VERT,ROUTE DE FONTAINEBLEAU - 94081,48.77177165,2.3679994422,0,,15,T7,#704B1C
4284925,,DOMAINE CHERIOUX,ROUTE DE FONTAINEBLEAU - 94021,48.779061042,2.3675685643,0,,16,T7,#704B1C
4284927,,LAMARTINE,AVENUE DE STALINGRAD - 94076,48.783276484,2.3672446037,0,,17,T7,#704B1C
4284929,,VILLEJUIF - LOUIS ARAGON,AVENUE DE STALINGRAD - 94076,48.787554818,2.3669614325,0,,18,T7,#704B1C
4798986,,SAINT-DENIS - PORTE DE PARIS,RUE DANIELLE CASANOVA - 93066,48.929746768,2.3571681157,0,,1,T8,#837902
4798988,,PIERRE DE GEYTER,BOULEVARD MARCEL SEMBAT - 93066,48.932083992,2.3529133491,0,,2,T8,#837902
4798990,,SAINT-DENIS - GARE,BOULEVARD MARCEL SEMBAT - 93066,48.935886041,2.3472671437,0,,3,T8,#837902
4798992,,PAUL ELUARD,0 RUE MAURICE THOREZ - 93066,48.939678643,2.3451533743,0,,4,T8,#837902
4798994,,DELAUNAY-BELLEVILLE,RUE DE LA POTERIE - 93066,48.945879365,2.347350938,0,,5,T8,#837902
4798996,,CESAR,AVENUE DIVISION LECLERC - 93079,48.949528301,2.342466901,0,,6,T8,#837902
4798998,,JEAN VILAR,AVENUE DIVISION LECLERC - 93079,48.952790437,2.343449699,0,,7,T8,#837902
4799000,,PABLO NERUDA,0 AVENUE DE LA DIVISION LECLERC - 93079,48.956142471,2.3436002094,0,,8,T8,#837902
4799002,,VILLETANEUSE-UNIVERSITE,0 RUE DU 19 MARS 1962 - 93079,48.959404721,2.3417036552,0,,9,T8,#837902
4799022,,LACEPEDE,39 AVENUE DE LATTRE DE TASSIGNY - 93031,48.956067977,2.3115451044,0,,10,T8,#837902
4799024,,GILBERT BONNEMAISON,3 AVENUE SALVADOR ALLENDE - 93031,48.955366134,2.3077381942,0,,11,T8,#837902
4799026,,EPINAY-SUR-SEINE - GARE,PONT DE LA RESISTANCE - 93031,48.955939667,2.3018017525,0,,12,T8,#837902
4799028,,EPINAY - ORGEMONT,67 RUE FELIX MERLIN - 93031,48.955443335,2.2954293591,0,,13,T8,#837902
